{
  "total_high_win_shops": 137,
  "total_registered_pov": 221,
  "missing_pov_count": 18,
  "missing_list": [
    {
      "name": "인터넷 복권판매사이트",
      "address": "동행복권(dhlottery.co.kr)",
      "wins": 102,
      "lat": 37.4815,
      "lng": 127.0145,
      "has_coords": true
    },
    {
      "name": "세진전자통신",
      "address": "대구 서구 평리동 1094-4",
      "wins": 16,
      "lat": 35.8718884870855,
      "lng": 128.555196544539,
      "has_coords": true
    },
    {
      "name": "오케이상사",
      "address": "서울 서초구 신반포로 176 센트럴시티내100호매점",
      "wins": 8,
      "lat": 37.5039351769908,
      "lng": 127.002413006799,
      "has_coords": true
    },
    {
      "name": "복권백화점",
      "address": "경기 파주시 금촌2동 329-135",
      "wins": 7,
      "lat": 37.3984223865984,
      "lng": 126.726256461664,
      "has_coords": true
    },
    {
      "name": "잠실매점",
      "address": "서울 송파구 신천동 7-18번지 잠실역 8번출구 앞 가판",
      "wins": 7,
      "lat": 37.5144542739603,
      "lng": 127.1007349885,
      "has_coords": true
    },
    {
      "name": "목화휴게소",
      "address": "경남 사천시 사천대로 912",
      "wins": 6,
      "lat": 35.0017600909728,
      "lng": 128.054209521477,
      "has_coords": true
    },
    {
      "name": "대박천하마트",
      "address": "인천 부평구 갈산동 367번지",
      "wins": 6,
      "lat": 37.5115855704108,
      "lng": 126.726366374514,
      "has_coords": true
    },
    {
      "name": "노다지복권방",
      "address": "경기 용인시 처인구 마평동 735-1",
      "wins": 6,
      "lat": 37.2350997738575,
      "lng": 127.210525773714,
      "has_coords": true
    },
    {
      "name": "행복한사람들 (흥부네)",
      "address": "경기 광주시 경충대로 763",
      "wins": 5,
      "lat": 37.3555798712105,
      "lng": 127.32540015887,
      "has_coords": true
    },
    {
      "name": "노다지복권방",
      "address": "경기 용인시 처인구 금령로 130",
      "wins": 5,
      "lat": 37.2351637037009,
      "lng": 127.210500032181,
      "has_coords": true
    },
    {
      "name": "알리바이(나주점)",
      "address": "전남 나주시 나주로 142 알리바이",
      "wins": 5,
      "lat": 35.0313297380285,
      "lng": 126.717157991346,
      "has_coords": true
    },
    {
      "name": "노다지복권방",
      "address": "경기 시흥시 대야동 345-16 1층상가",
      "wins": 5,
      "lat": 37.448416258611,
      "lng": 126.791926293123,
      "has_coords": true
    },
    {
      "name": "오케이상사",
      "address": "서울 서초구 반포동 19-3번지 센트럴시티내100호매점",
      "wins": 5,
      "lat": 37.5043641148563,
      "lng": 127.003620888061,
      "has_coords": true
    },
    {
      "name": "오천억복권방",
      "address": "광주 서구 화정동 782-14",
      "wins": 5,
      "lat": 35.1529734232587,
      "lng": 126.88072111789,
      "has_coords": true
    },
    {
      "name": "미나식품(로또판매점)",
      "address": "서울 강서구 방화동 484-23",
      "wins": 5,
      "lat": 37.5735042394953,
      "lng": 126.810684180076,
      "has_coords": true
    },
    {
      "name": "복권전문점",
      "address": "인천 부평구 청천동 236-20",
      "wins": 5,
      "lat": 37.5038435469501,
      "lng": 126.715130703363,
      "has_coords": true
    },
    {
      "name": "복권명당",
      "address": "충남 공주시 신관동 585-12",
      "wins": 5,
      "lat": 36.471840773738,
      "lng": 127.133136987861,
      "has_coords": true
    },
    {
      "name": "영화유통(1등복권방)",
      "address": "울산 남구 달동 758삼성아파트상가204-101",
      "wins": 5,
      "lat": 35.5338146134567,
      "lng": 129.322041642891,
      "has_coords": true
    }
  ]
}