[
  {
    "shop_name": "행운복권방",
    "total_records": 117,
    "total_addresses": 40,
    "proximity_groups": [
      {
        "main_address": "부산 중구 남포동5가 64-3번지",
        "main_records": [
          {
            "r": 1088,
            "n": "행운복권방",
            "a": "부산 중구 남포동5가 64-3번지",
            "m": "자동",
            "lat": 35.0980571731015,
            "lng": 129.030525522731,
            "pov": {
              "id": "1202742263",
              "pan": 162.33,
              "tilt": -1.85,
              "zoom": -2
            }
          },
          {
            "r": 925,
            "n": "행운복권방",
            "a": "부산 중구 남포동5가 64-3번지",
            "m": "알수없음",
            "lat": 35.0980571731015,
            "lng": 129.030525522731,
            "pov": {
              "id": "1202742263",
              "pan": 162.33,
              "tilt": -1.85,
              "zoom": -2
            }
          },
          {
            "r": 718,
            "n": "행운복권방",
            "a": "부산 중구 남포동5가 64-3번지",
            "m": "알수없음",
            "lat": 35.0980571731015,
            "lng": 129.030525522731,
            "pov": {
              "id": "1202742263",
              "pan": 162.33,
              "tilt": -1.85,
              "zoom": -2
            }
          },
          {
            "r": 629,
            "n": "행운복권방",
            "a": "부산 중구 남포동5가 64-3번지",
            "m": "알수없음",
            "lat": 35.0980571731015,
            "lng": 129.030525522731,
            "pov": {
              "id": "1202742263",
              "pan": 162.33,
              "tilt": -1.85,
              "zoom": -2
            }
          },
          {
            "r": 550,
            "n": "행운복권방",
            "a": "부산 중구 남포동5가 64-3번지",
            "m": "알수없음",
            "lat": 35.0980571731015,
            "lng": 129.030525522731,
            "pov": {
              "id": "1202742263",
              "pan": 162.33,
              "tilt": -1.85,
              "zoom": -2
            }
          }
        ],
        "nearby_addresses": [
          {
            "address": "부산 서구 충무동1가 28-19",
            "distance_m": 705.8,
            "records": [
              {
                "r": 727,
                "n": "행운복권방",
                "a": "부산 서구 충무동1가 28-19",
                "m": "자동",
                "lat": 35.0955174204825,
                "lng": 129.023416261747
              }
            ]
          }
        ]
      }
    ]
  },
  {
    "shop_name": "노다지복권방",
    "total_records": 91,
    "total_addresses": 36,
    "proximity_groups": [
      {
        "main_address": "서울 동대문구 한빛로 1-1",
        "main_records": [
          {
            "r": 1028,
            "n": "노다지복권방",
            "a": "서울 동대문구 한빛로 1-1",
            "m": "자동",
            "lat": 37.5763302856205,
            "lng": 127.023939791577
          },
          {
            "r": 1003,
            "n": "노다지복권방",
            "a": "서울 동대문구 한빛로 1-1",
            "m": "자동",
            "lat": 37.5763302856205,
            "lng": 127.023939791577
          }
        ],
        "nearby_addresses": [
          {
            "address": "서울 종로구 창신동 302-5",
            "distance_m": 914.0,
            "records": [
              {
                "r": 721,
                "n": "노다지복권방",
                "a": "서울 종로구 창신동 302-5",
                "m": "자동",
                "lat": 37.5729072304076,
                "lng": 127.0145109659
              },
              {
                "r": 646,
                "n": "노다지복권방",
                "a": "서울 종로구 창신동 302-5",
                "m": "자동",
                "lat": 37.5729072304076,
                "lng": 127.0145109659
              },
              {
                "r": 597,
                "n": "노다지복권방",
                "a": "서울 종로구 창신동 302-5",
                "m": "자동",
                "lat": 37.5729072304076,
                "lng": 127.0145109659
              },
              {
                "r": 350,
                "n": "노다지복권방",
                "a": "서울 종로구 창신동 302-5",
                "m": "자동",
                "lat": 37.5729072304076,
                "lng": 127.0145109659
              }
            ]
          }
        ]
      },
      {
        "main_address": "서울 중구 신당동 110-10",
        "main_records": [
          {
            "r": 914,
            "n": "노다지복권방",
            "a": "서울 중구 신당동 110-10",
            "m": "수동",
            "lat": 37.5650537055618,
            "lng": 127.017782836144
          }
        ],
        "nearby_addresses": [
          {
            "address": "서울 종로구 창신동 302-5",
            "distance_m": 919.7,
            "records": [
              {
                "r": 721,
                "n": "노다지복권방",
                "a": "서울 종로구 창신동 302-5",
                "m": "자동",
                "lat": 37.5729072304076,
                "lng": 127.0145109659
              },
              {
                "r": 646,
                "n": "노다지복권방",
                "a": "서울 종로구 창신동 302-5",
                "m": "자동",
                "lat": 37.5729072304076,
                "lng": 127.0145109659
              },
              {
                "r": 597,
                "n": "노다지복권방",
                "a": "서울 종로구 창신동 302-5",
                "m": "자동",
                "lat": 37.5729072304076,
                "lng": 127.0145109659
              },
              {
                "r": 350,
                "n": "노다지복권방",
                "a": "서울 종로구 창신동 302-5",
                "m": "자동",
                "lat": 37.5729072304076,
                "lng": 127.0145109659
              }
            ]
          }
        ]
      }
    ]
  },
  {
    "shop_name": "세종로또방",
    "total_records": 5,
    "total_addresses": 2,
    "proximity_groups": [
      {
        "main_address": "세종 용포로 32",
        "main_records": [
          {
            "r": 1201,
            "n": "세종로또방",
            "a": "세종 용포로 32",
            "m": "수동",
            "lat": 36.4613848948516,
            "lng": 127.280691708831,
            "pov": {
              "id": "1200677283",
              "pan": 71.08,
              "tilt": 7.72,
              "fov": 110
            }
          },
          {
            "r": 1154,
            "n": "세종로또방",
            "a": "세종 용포로 32",
            "m": "자동",
            "lat": 36.4613848948516,
            "lng": 127.280691708831,
            "pov": {
              "id": "1200677283",
              "pan": 71.08,
              "tilt": 7.72,
              "fov": 110
            }
          },
          {
            "r": 1102,
            "n": "세종로또방",
            "a": "세종 용포로 32",
            "m": "자동",
            "lat": 36.4613848948516,
            "lng": 127.280691708831,
            "pov": {
              "id": "1200677283",
              "pan": 71.08,
              "tilt": 7.72,
              "fov": 110
            }
          },
          {
            "r": 1067,
            "n": "세종로또방",
            "a": "세종 용포로 32",
            "m": "자동",
            "lat": 36.4613848948516,
            "lng": 127.280691708831,
            "pov": {
              "id": "1200677283",
              "pan": 71.08,
              "tilt": 7.72,
              "fov": 110
            }
          }
        ],
        "nearby_addresses": [
          {
            "address": "세종 금남면 용포리 85-1",
            "distance_m": 30.8,
            "records": [
              {
                "r": 907,
                "n": "세종로또방",
                "a": "세종 금남면 용포리 85-1",
                "m": "자동",
                "lat": 36.46166228111,
                "lng": 127.280687911412
              }
            ]
          }
        ]
      }
    ]
  }
]