[
  {
    "name": "편의점사랑",
    "address": "서울 강서구 곰달래로25길 57",
    "wins": 4,
    "has_pov": false,
    "lat": 37.5331477530855,
    "lng": 126.848289726398
  },
  {
    "name": "명당",
    "address": "경남 진주시 동부로 1356 1층 일부호",
    "wins": 4,
    "has_pov": false,
    "lat": 35.1872959127123,
    "lng": 128.224759617844
  },
  {
    "name": "세종로또방",
    "address": "세종 용포로 32",
    "wins": 4,
    "has_pov": false,
    "lat": 36.4613848948516,
    "lng": 127.280691708831
  },
  {
    "name": "대박찬스",
    "address": "충북 청주시 흥덕구 가경로161번길 3",
    "wins": 4,
    "has_pov": false,
    "lat": 36.6289872301065,
    "lng": 127.436471677705
  },
  {
    "name": "하영",
    "address": "인천 서구 청라에메랄드로 65 아파트 상가 102호",
    "wins": 4,
    "has_pov": false,
    "lat": 37.5305354871476,
    "lng": 126.656126476124
  },
  {
    "name": "복권마을",
    "address": "서울 구로구 구로동로 72",
    "wins": 4,
    "has_pov": false,
    "lat": 37.485330400008,
    "lng": 126.886039054657
  },
  {
    "name": "복권세상",
    "address": "전남 목포시 청호로 139 1층 복권세상",
    "wins": 4,
    "has_pov": false,
    "lat": 34.8039274358966,
    "lng": 126.375817956267
  },
  {
    "name": "해수로또",
    "address": "충북 청주시 상당구 산성로 22-1",
    "wins": 4,
    "has_pov": false,
    "lat": 36.6261618044057,
    "lng": 127.499370400723
  },
  {
    "name": "천하명당복권방",
    "address": "경기 수원시 팔달구 매산로 2",
    "wins": 4,
    "has_pov": false,
    "lat": 37.2666421379776,
    "lng": 127.00188252772
  },
  {
    "name": "성호복권방",
    "address": "대전 대덕구 신일동로 1",
    "wins": 4,
    "has_pov": false,
    "lat": 36.4447913410068,
    "lng": 127.405222324082
  },
  {
    "name": "복권세상",
    "address": "경기 여주시 우암로 21-1",
    "wins": 4,
    "has_pov": false,
    "lat": 37.2968804119524,
    "lng": 127.633105588725
  },
  {
    "name": "신영슈퍼",
    "address": "서울 강남구 광평로51길 27 삼익아파트상가101호",
    "wins": 4,
    "has_pov": false,
    "lat": 37.4896147291453,
    "lng": 127.100730117136
  },
  {
    "name": "로또",
    "address": "경기 포천시 죽엽산로196번길 4",
    "wins": 4,
    "has_pov": false,
    "lat": 37.814733765805,
    "lng": 127.160357862812
  },
  {
    "name": "아이러브마트복권방",
    "address": "울산 중구 유곡로 19-1",
    "wins": 4,
    "has_pov": false,
    "lat": 35.5566987509391,
    "lng": 129.307118444756
  },
  {
    "name": "프로토베팅샵",
    "address": "부산 중구 국제시장2길 5 4호",
    "wins": 4,
    "has_pov": false,
    "lat": 35.0997065582699,
    "lng": 129.028315809427
  },
  {
    "name": "묵동식품",
    "address": "서울 중랑구 동일로 919",
    "wins": 4,
    "has_pov": false,
    "lat": 37.6124704724842,
    "lng": 127.077065869395
  },
  {
    "name": "로또대박",
    "address": "세종 장척로 571",
    "wins": 4,
    "has_pov": false,
    "lat": 36.4992941129805,
    "lng": 127.221313225938
  },
  {
    "name": "천하명당복권",
    "address": "대구 북구 칠곡중앙대로 545",
    "wins": 4,
    "has_pov": false,
    "lat": 35.9443081130851,
    "lng": 128.550664555604
  },
  {
    "name": "신불당로또",
    "address": "충남 천안시 서북구 불당21로 40 501동 지1층 B143호",
    "wins": 4,
    "has_pov": false,
    "lat": 36.8130061408921,
    "lng": 127.1045945918
  },
  {
    "name": "패밀리복권방",
    "address": "경기 남양주시 늘을1로16번길 29 늘봄타워 107호",
    "wins": 4,
    "has_pov": false,
    "lat": 37.654082753503,
    "lng": 127.2433325019
  },
  {
    "name": "본스튜디오",
    "address": "제주 제주시 하귀로 111",
    "wins": 4,
    "has_pov": false,
    "lat": 33.4836097363104,
    "lng": 126.407825234812
  },
  {
    "name": "세븐일레븐 홍익점",
    "address": "경기 안성시 종합운동장로 161",
    "wins": 4,
    "has_pov": false,
    "lat": 37.0129524615376,
    "lng": 127.325773523738
  },
  {
    "name": "오늘의로또",
    "address": "경기 오산시 궐리사로 75",
    "wins": 4,
    "has_pov": false,
    "lat": 37.1586862629393,
    "lng": 127.060625473254
  },
  {
    "name": "진우복권",
    "address": "부산 연제구 월드컵대로 119 204호(연산동)",
    "wins": 4,
    "has_pov": false,
    "lat": 35.1848206523247,
    "lng": 129.082073722775
  },
  {
    "name": "진우행운복권방",
    "address": "경기 광주시 도척로 327",
    "wins": 4,
    "has_pov": false,
    "lat": 37.3236218248763,
    "lng": 127.336601713747
  },
  {
    "name": "주택복권방",
    "address": "강원 원주시 우산초교길 29",
    "wins": 4,
    "has_pov": false,
    "lat": 37.3673587552496,
    "lng": 127.937934674673
  },
  {
    "name": "복권나라",
    "address": "서울 관악구 은천로 40-1",
    "wins": 4,
    "has_pov": false,
    "lat": 37.4860180512095,
    "lng": 126.939843355048
  },
  {
    "name": "행운복권",
    "address": "경기 군포시 대야1로 3 1동",
    "wins": 4,
    "has_pov": false,
    "lat": 37.323635,
    "lng": 126.912624
  },
  {
    "name": "드림마트",
    "address": "인천 서구 검단로 490",
    "wins": 4,
    "has_pov": false,
    "lat": 37.6023058201535,
    "lng": 126.658651609265
  },
  {
    "name": "대박스타",
    "address": "인천 미추홀구 경인로 348",
    "wins": 4,
    "has_pov": false,
    "lat": 37.4583282689203,
    "lng": 126.678579916584
  },
  {
    "name": "복돼지복권방",
    "address": "경기 화성시 3.1만세로 43",
    "wins": 4,
    "has_pov": false,
    "lat": 37.0828242365477,
    "lng": 126.818741194792
  },
  {
    "name": "주엽역 로또판매점",
    "address": "경기 고양시 일산서구 중앙로 1437 화성프라자 도로",
    "wins": 4,
    "has_pov": false,
    "lat": 37.6700574812134,
    "lng": 126.760499747317
  },
  {
    "name": "씨유 대전반석역점",
    "address": "대전 유성구 반석로 10 반석역프라자",
    "wins": 4,
    "has_pov": false,
    "lat": 36.3921189495381,
    "lng": 127.313470412257
  },
  {
    "name": "천하명당",
    "address": "경기 평택시 탄현로 224",
    "wins": 4,
    "has_pov": false,
    "lat": 37.072590132845,
    "lng": 127.055155022418
  },
  {
    "name": "돈벼락맞는곳",
    "address": "부산 기장군 읍내로 109",
    "wins": 4,
    "has_pov": false,
    "lat": 35.2452378493168,
    "lng": 129.216331930168
  },
  {
    "name": "용꿈돼지꿈복권방",
    "address": "경기 시흥시 하중로 235 법조타운103호",
    "wins": 4,
    "has_pov": false,
    "lat": 37.3908243401202,
    "lng": 126.806573092145
  },
  {
    "name": "로또대박",
    "address": "경기 부천시 석천로177번길 11 제이클래스중동 1층 105호",
    "wins": 4,
    "has_pov": false,
    "lat": 37.5031091878246,
    "lng": 126.762102111299
  },
  {
    "name": "수퍼복권대박",
    "address": "인천 연수구 용담로 60",
    "wins": 4,
    "has_pov": false,
    "lat": 37.4186656828557,
    "lng": 126.673597092077
  },
  {
    "name": "천하명당복권방",
    "address": "경남 거제시 옥포1동 582",
    "wins": 4,
    "has_pov": false,
    "lat": 34.8916673452199,
    "lng": 128.694881203503
  },
  {
    "name": "행운복권방",
    "address": "부산 중구 남포동5가 64-3번지",
    "wins": 4,
    "has_pov": false,
    "lat": 35.0980571731015,
    "lng": 129.030525522731
  },
  {
    "name": "로또명당해미점",
    "address": "충남 서산시 해미면 읍내리 295-4",
    "wins": 4,
    "has_pov": false,
    "lat": 36.7134693303261,
    "lng": 126.544204830911
  },
  {
    "name": "삼삼마트",
    "address": "경남 진주시 봉곡동 27-3",
    "wins": 4,
    "has_pov": false,
    "lat": 35.1951997239231,
    "lng": 128.075623892686
  },
  {
    "name": "형제상회",
    "address": "대전 서구 용문동 256-3",
    "wins": 4,
    "has_pov": false,
    "lat": 36.3367982167553,
    "lng": 127.394728218247
  },
  {
    "name": "행복미니슈퍼",
    "address": "경기 부천시 원미구 심곡동 351-3",
    "wins": 4,
    "has_pov": false,
    "lat": 37.4871383205421,
    "lng": 126.775587063516
  },
  {
    "name": "하당복권방",
    "address": "전남 목포시 옥암동 998",
    "wins": 4,
    "has_pov": false,
    "lat": 34.8039126875519,
    "lng": 126.429445566138
  },
  {
    "name": "베스트올수성점",
    "address": "전북 정읍시 수성동 932-1",
    "wins": 4,
    "has_pov": false,
    "lat": 35.5817054410215,
    "lng": 126.854405441544
  },
  {
    "name": "다모아복권방",
    "address": "서울 구로구 오류동 137-46",
    "wins": 4,
    "has_pov": false,
    "lat": 37.4933079055358,
    "lng": 126.84433770858
  },
  {
    "name": "서재강변로또",
    "address": "대구 달성군 다사읍 서재리 58-2",
    "wins": 4,
    "has_pov": false,
    "lat": 35.8786747087314,
    "lng": 128.49696391394
  },
  {
    "name": "부자복권방",
    "address": "전북 군산시 대명동 138-12",
    "wins": 4,
    "has_pov": false,
    "lat": 35.9804970463945,
    "lng": 126.72022219165
  },
  {
    "name": "복권파는집",
    "address": "경남 창원시 마산회원구 합성동 84-29",
    "wins": 4,
    "has_pov": false,
    "lat": 35.2402192623904,
    "lng": 128.583626550294
  },
  {
    "name": "왕대박복권방",
    "address": "경북 문경시 모전동 81-89번지",
    "wins": 4,
    "has_pov": false,
    "lat": 36.588121145731,
    "lng": 128.192934197552
  },
  {
    "name": "행운복권방",
    "address": "경기 의정부시 용현동 14",
    "wins": 4,
    "has_pov": false,
    "lat": 37.7367784023592,
    "lng": 127.087140258519
  },
  {
    "name": "탑로또",
    "address": "경남 거제시 상동동(상문동) 979-1 서원탑훼밀리마트 내",
    "wins": 4,
    "has_pov": false,
    "lat": 34.8785081560033,
    "lng": 128.628031285479
  },
  {
    "name": "행운을주는사람들",
    "address": "충북 충주시 연수동 923번지 1층 복권방",
    "wins": 4,
    "has_pov": false,
    "lat": 36.9876349059116,
    "lng": 127.931630238358
  },
  {
    "name": "자수정슈퍼",
    "address": "전북 전주시 완산구 효자동1가 195-19",
    "wins": 4,
    "has_pov": false,
    "lat": 35.8057404573887,
    "lng": 127.12692500486
  },
  {
    "name": "다모아복권",
    "address": "서울 구로구 오류동 315-14",
    "wins": 4,
    "has_pov": false,
    "lat": 37.4959116541972,
    "lng": 126.842788829862
  },
  {
    "name": "대원슈퍼마켓",
    "address": "부산 수영구 광안2동 373-15",
    "wins": 4,
    "has_pov": false,
    "lat": 35.1524372661156,
    "lng": 129.112044235087
  },
  {
    "name": "돈벼락맞는곳",
    "address": "부산 동구 범일동 833-5번지",
    "wins": 4,
    "has_pov": false,
    "lat": 35.1391527187555,
    "lng": 129.059929781153
  },
  {
    "name": "마두5번출구가판로또",
    "address": "경기 고양시 일산동구 마두동 801-1 마두역5번출구",
    "wins": 4,
    "has_pov": false,
    "lat": 37.6525508106707,
    "lng": 126.777950200652
  },
  {
    "name": "종합복권방",
    "address": "전남 해남군 해남읍 해리 189-2",
    "wins": 4,
    "has_pov": false,
    "lat": 34.5707766689417,
    "lng": 126.610890385144
  },
  {
    "name": "복권방",
    "address": "부산 사하구 장림동 328-9",
    "wins": 4,
    "has_pov": false,
    "lat": 35.0809900990823,
    "lng": 128.968200837896
  },
  {
    "name": "교통카드판매대",
    "address": "서울 강동구 고덕동 210-1 구서울승합종점앞",
    "wins": 4,
    "has_pov": false,
    "lat": 37.5576094801473,
    "lng": 127.170103050262
  },
  {
    "name": "우일",
    "address": "서울 송파구 마천2동 25-2",
    "wins": 4,
    "has_pov": false,
    "lat": 37.4999718645197,
    "lng": 127.143987647917
  },
  {
    "name": "로또복권하대점",
    "address": "경남 진주시 하대동 126-17",
    "wins": 4,
    "has_pov": false,
    "lat": 35.1870313924772,
    "lng": 128.122460842365
  },
  {
    "name": "팡팡복권방",
    "address": "충북 진천군 광혜원면 광혜원리 265-3",
    "wins": 4,
    "has_pov": false,
    "lat": 36.9900231106039,
    "lng": 127.445291948445
  },
  {
    "name": "로또천국",
    "address": "충북 충주시 칠금동 849 충주공영버스터미널1층 터미널매점",
    "wins": 4,
    "has_pov": false,
    "lat": 36.9817625365189,
    "lng": 127.914601584569
  },
  {
    "name": "동원복권",
    "address": "경남 양산시 북정동 531-4",
    "wins": 4,
    "has_pov": false,
    "lat": 35.3613522843159,
    "lng": 129.047818399656
  },
  {
    "name": "메트로센터점",
    "address": "대구 중구 덕산동 88 메트로센터C412호",
    "wins": 4,
    "has_pov": false,
    "lat": 35.865918,
    "lng": 128.5960254
  },
  {
    "name": "부영마트",
    "address": "서울 중랑구 상봉동 108",
    "wins": 4,
    "has_pov": false,
    "lat": 37.5943678504664,
    "lng": 127.085717050425
  },
  {
    "name": "럭키슈퍼",
    "address": "서울 용산구 후암동 446",
    "wins": 4,
    "has_pov": false,
    "lat": 37.5543759425223,
    "lng": 126.976755883096
  },
  {
    "name": "인생대역전",
    "address": "인천 계양구 임학동 10-10",
    "wins": 4,
    "has_pov": false,
    "lat": 37.5454965279169,
    "lng": 126.738722214507
  },
  {
    "name": "주택복권방",
    "address": "경기 용인시 수지구 풍덕천동 717-3 103호",
    "wins": 4,
    "has_pov": false,
    "lat": 37.3238924881527,
    "lng": 127.097471129192
  },
  {
    "name": "버스표가판점",
    "address": "경기 안양시 동안구 호계동 1039-2",
    "wins": 4,
    "has_pov": false,
    "lat": 37.3897482860782,
    "lng": 126.951078362565
  },
  {
    "name": "서정천하명당",
    "address": "경기 평택시 서정동 262-11",
    "wins": 4,
    "has_pov": false,
    "lat": 37.0581077947796,
    "lng": 127.059332008796
  },
  {
    "name": "로또(파발마점)",
    "address": "경기 시흥시 정왕동 2302 역전프라자105호",
    "wins": 4,
    "has_pov": false,
    "lat": 37.3519923361274,
    "lng": 126.740610028493
  },
  {
    "name": "행운복권방",
    "address": "강원 인제군 북면 원통리 681-5",
    "wins": 4,
    "has_pov": false,
    "lat": 38.1224424690502,
    "lng": 128.206847839489
  },
  {
    "name": "종로3가1호선역2번출구가로판매점82호",
    "address": "서울 종로구 종로3가 23-1",
    "wins": 4,
    "has_pov": false,
    "lat": 37.5707081546292,
    "lng": 126.991897171973
  },
  {
    "name": "행운복권",
    "address": "충북 제천시 의림동 24-10",
    "wins": 4,
    "has_pov": false,
    "lat": 37.142328877773,
    "lng": 128.208647441328
  },
  {
    "name": "왕대박복권",
    "address": "인천 부평구 십정동 577-6",
    "wins": 4,
    "has_pov": false,
    "lat": 37.4773513046613,
    "lng": 126.709834722586
  },
  {
    "name": "원당역복권방",
    "address": "경기 고양시 덕양구 성사동 410-17",
    "wins": 4,
    "has_pov": false,
    "lat": 37.6537693185899,
    "lng": 126.843019609872
  },
  {
    "name": "행복복권방",
    "address": "경남 창원시 의창구 팔용동 106-10",
    "wins": 4,
    "has_pov": false,
    "lat": 35.2528700152837,
    "lng": 128.6105731626
  },
  {
    "name": "로또복권방",
    "address": "충남 당진시 당진읍 읍내리 620-5",
    "wins": 4,
    "has_pov": false,
    "lat": 36.8929443501726,
    "lng": 126.626336737792
  },
  {
    "name": "천하명당복권",
    "address": "대구 북구 관음동 1249-4",
    "wins": 4,
    "has_pov": false,
    "lat": 35.9446815077719,
    "lng": 128.54533723023
  },
  {
    "name": "행운복권",
    "address": "경기 군포시 대야미동 374-2번지",
    "wins": 4,
    "has_pov": false,
    "lat": 37.3262517548823,
    "lng": 126.919154626122
  },
  {
    "name": "일등복권편의점",
    "address": "대구 달서구 본리동 2-16",
    "wins": 4,
    "has_pov": false,
    "lat": 35.8421535554574,
    "lng": 128.536196203347
  },
  {
    "name": "GS25(중촌현대)",
    "address": "대전 중구 중촌동 17-2",
    "wins": 4,
    "has_pov": false,
    "lat": 36.3374236359498,
    "lng": 127.412499285155
  },
  {
    "name": "제이복권방",
    "address": "서울 종로구 종로5가 58평창빌딩1층103호",
    "wins": 4,
    "has_pov": false,
    "lat": 37.5712973788086,
    "lng": 127.002853931293
  },
  {
    "name": "로터리편의마트",
    "address": "경북 포항시 북구 덕산동 243-9",
    "wins": 4,
    "has_pov": false,
    "lat": 37.6019639910993,
    "lng": 127.03348913167
  },
  {
    "name": "아이러브복권방",
    "address": "울산 중구 우정동 725-15",
    "wins": 4,
    "has_pov": false,
    "lat": 35.5566987509391,
    "lng": 129.307118444756
  },
  {
    "name": "알리바이",
    "address": "광주 광산구 신가동 986-4",
    "wins": 4,
    "has_pov": false,
    "lat": 35.1853971990337,
    "lng": 126.836652272112
  }
]