[
  {
    "name": "목화휴게소",
    "addr": "경남 사천시 사천대로 912",
    "type": "STATIC",
    "panoId": 1188272977,
    "pov": {
      "pan": 34.24,
      "tilt": 0.74,
      "zoom": 0
    },
    "lat": 0,
    "lng": 0
  },
  {
    "name": "알리바이(나주점)",
    "addr": "전남 나주시 나주로 142",
    "type": "STATIC",
    "panoId": 1191260182,
    "pov": {
      "pan": 17.27,
      "tilt": -9.34,
      "zoom": 0
    },
    "lat": 0,
    "lng": 0
  },
  {
    "name": "황금복권방",
    "addr": "부산 부산진구 가야대로 613",
    "type": "DYNAMIC",
    "lat": 35.15552898014424,
    "lng": 129.03956599390582
  },
  {
    "name": "로또휴게실",
    "addr": "경기 용인시 기흥구 용구대로 1885",
    "type": "DYNAMIC",
    "lat": 37.25644202224744,
    "lng": 127.10428142873145
  },
  {
    "name": "복권명당",
    "addr": "대구 수성구 들안로 243",
    "type": "DYNAMIC",
    "lat": 35.85170055410605,
    "lng": 128.61664578286386
  },
  {
    "name": "가판점(2호선)",
    "addr": "신도림역 2번출구",
    "type": "DYNAMIC",
    "lat": 37.5079051970385,
    "lng": 126.89178445769596
  },
  {
    "name": "복권판매점",
    "addr": "전남 구례군 구례읍 봉성로 18",
    "type": "DYNAMIC",
    "lat": 35.20381987074413,
    "lng": 127.46449893192495
  }
]